{
   "type": "FeatureCollection",
   "features": [
  {
    "type": "Feature",
    "geometry": {
       "type": "Point",
       "coordinates":  [ -122.4822998,37.7830048 ]
    },
    "properties": {
    "school_name":"Alamo Elementary School",
    "date":"2017-04-12",
    "ppb":2.66
    }
  },
  {
    "type": "Feature",
    "geometry": {
       "type": "Point",
       "coordinates":  [ -122.4381943,37.7536812 ]
    },
    "properties": {
    "school_name":"Alvarado Elementary School",
    "date":"2017-12-15",
    "ppb":1
    }
  },
  {
    "type": "Feature",
    "geometry": {
       "type": "Point",
       "coordinates":  [ -122.4488297,37.7453156 ]
    },
    "properties": {
    "school_name":"Asawa (Ruth) SF School of the Arts",
    "date":"2018-03-14",
    "ppb":1.2
    }
  },
  {
    "type": "Feature",
    "geometry": {
       "type": "Point",
       "coordinates":  [ -122.4413986,37.7211418 ]
    },
    "properties": {
    "school_name":"Balboa High School",
    "date":"2018-03-06",
    "ppb":2.9
    }
  },
  {
    "type": "Feature",
    "geometry": {
       "type": "Point",
       "coordinates":  [ -122.4004898,37.7805595 ]
    },
    "properties": {
    "school_name":"Bessie Carmichael Middle School",
    "date":"2017-12-13",
    "ppb":11
    }
  },
  {
    "type": "Feature",
    "geometry": {
       "type": "Point",
       "coordinates":  [ -122.3892212,37.7178993 ]
    },
    "properties": {
    "school_name":"Bret Harte Elementary School",
    "date":"2017-09-29",
    "ppb":1.94
    }
  },
  {
    "type": "Feature",
    "geometry": {
       "type": "Point",
       "coordinates":  [ -122.4046936,37.7514534 ]
    },
    "properties": {
    "school_name":"Bryant Elementary School",
    "date":"2017-04-21",
    "ppb":11.7
    }
  },
  {
    "type": "Feature",
    "geometry": {
       "type": "Point",
       "coordinates":  [ -122.4201813,37.7530327 ]
    },
    "properties": {
    "school_name":"Buena Vista/Horace Mann K-8",
    "date":"2018-01-17",
    "ppb":5.5
    }
  },
  {
    "type": "Feature",
    "geometry": {
       "type": "Point",
       "coordinates":  [ -122.4065552,37.7215462 ]
    },
    "properties": {
    "school_name":"Burton (Phillip and Sala) Academic High School",
    "date":"2018-03-20",
    "ppb":1.2
    }
  },
  {
    "type": "Feature",
    "geometry": {
       "type": "Point",
       "coordinates":  [ -122.4040604,37.7947693 ]
    },
    "properties": {
    "school_name":"Chinese Ed. Center Elementary School",
    "date":"2017-09-26",
    "ppb":9.67
    }
  },
  {
    "type": "Feature",
    "geometry": {
       "type": "Point",
       "coordinates":  [ -122.4442749,37.7698288 ]
    },
    "properties": {
    "school_name":"Chinese Immersion School",
    "date":"2017-09-27",
    "ppb":1.38
    }
  },
  {
    "type": "Feature",
    "geometry": {
       "type": "Point",
       "coordinates":  [ -122.4246674,37.7187843 ]
    },
    "properties": {
    "school_name":"City Arts & Tech High School",
    "date":"2018-03-06",
    "ppb":1.8
    }
  },
  {
    "type": "Feature",
    "geometry": {
       "type": "Point",
       "coordinates":  [ -122.4229431,37.7802963 ]
    },
    "properties": {
    "school_name":"Civic Center SS",
    "date":"2017-09-28",
    "ppb":1.46
    }
  },
  {
    "type": "Feature",
    "geometry": {
       "type": "Point",
       "coordinates":  [ -122.4432373,37.80336 ]
    },
    "properties": {
    "school_name":"Claire B. Lilienthal 3-8 Scott Campus",
    "date":"2017-12-13",
    "ppb":1.3
    }
  },
  {
    "type": "Feature",
    "geometry": {
       "type": "Point",
       "coordinates":  [ -122.4704819,37.7312584 ]
    },
    "properties": {
    "school_name":"Commodore Sloat Elementary School",
    "date":"2017-04-11",
    "ppb":1.4
    }
  },
  {
    "type": "Feature",
    "geometry": {
       "type": "Point",
       "coordinates":  [ -122.4360733,37.7798042 ]
    },
    "properties": {
    "school_name":"Creative Arts Charter",
    "date":"2017-12-13",
    "ppb":1.5
    }
  },
  {
    "type": "Feature",
    "geometry": {
       "type": "Point",
       "coordinates":  [ -122.4007721,37.7620087 ]
    },
    "properties": {
    "school_name":"Daniel Webster Elementary School",
    "date":"2017-09-20",
    "ppb":4.14
    }
  },
  {
    "type": "Feature",
    "geometry": {
       "type": "Point",
       "coordinates":  [ -122.4037018,37.7613983 ]
    },
    "properties": {
    "school_name":"Downtown High School",
    "date":"2017-12-16",
    "ppb":660
    }
  },
  {
    "type": "Feature",
    "geometry": {
       "type": "Point",
       "coordinates":  [ -122.4250107,37.7404327 ]
    },
    "properties": {
    "school_name":"Fairmount Elementary School",
    "date":"2017-10-06",
    "ppb":2.16
    }
  },
  {
    "type": "Feature",
    "geometry": {
       "type": "Point",
       "coordinates":  [ -122.4241486,37.803791 ]
    },
    "properties": {
    "school_name":"Galileo High School",
    "date":"2017-12-13",
    "ppb":1.5
    }
  },
  {
    "type": "Feature",
    "geometry": {
       "type": "Point",
       "coordinates":  [ -122.4366913,37.7832642 ]
    },
    "properties": {
    "school_name":"Gateway High School",
    "date":"2018-01-18",
    "ppb":2.1
    }
  },
  {
    "type": "Feature",
    "geometry": {
       "type": "Point",
       "coordinates":  [ -122.4650269,37.7838554 ]
    },
    "properties": {
    "school_name":"George Peabody Elementary School",
    "date":"2017-10-04",
    "ppb":8.17
    }
  },
  {
    "type": "Feature",
    "geometry": {
       "type": "Point",
       "coordinates":  [ -122.3853378,37.7316666 ]
    },
    "properties": {
    "school_name":"George Washington Carver Elementary School",
    "date":"2017-04-20",
    "ppb":5.17
    }
  },
  {
    "type": "Feature",
    "geometry": {
       "type": "Point",
       "coordinates":  [ -122.4356232,37.7331314 ]
    },
    "properties": {
    "school_name":"Glen Park Elementary School",
    "date":"2017-09-26",
    "ppb":1.93
    }
  },
  {
    "type": "Feature",
    "geometry": {
       "type": "Point",
       "coordinates":  [ -122.4504242,37.7634926 ]
    },
    "properties": {
    "school_name":"Grattan Elementary School",
    "date":"2017-10-03",
    "ppb":3.24
    }
  },
  {
    "type": "Feature",
    "geometry": {
       "type": "Point",
       "coordinates":  [ -122.4186859,37.7284126 ]
    },
    "properties": {
    "school_name":"Hillcrest Elementary School",
    "date":"2017-09-29",
    "ppb":6.05
    }
  },
  {
    "type": "Feature",
    "geometry": {
       "type": "Point",
       "coordinates":  [ -122.4096298,37.7504539 ]
    },
    "properties": {
    "school_name":"Hilltop High School (Pregnant Minors)",
    "date":"2017-12-05",
    "ppb":1.1
    }
  },
  {
    "type": "Feature",
    "geometry": {
       "type": "Point",
       "coordinates":  [ -122.4689636,37.7455559 ]
    },
    "properties": {
    "school_name":"Hoover (Herbert) Middle School",
    "date":"2017-10-12",
    "ppb":2.01
    }
  },
  {
    "type": "Feature",
    "geometry": {
       "type": "Point",
       "coordinates":  [ -122.4006882,37.7617035 ]
    },
    "properties": {
    "school_name":"International Study High School",
    "date":"2017-11-01",
    "ppb":5600
    }
  },
  {
    "type": "Feature",
    "geometry": {
       "type": "Point",
       "coordinates":  [ -122.4110413,37.7976189 ]
    },
    "properties": {
    "school_name":"Jean Parker Elementary School",
    "date":"2017-09-28",
    "ppb":1.45
    }
  },
  {
    "type": "Feature",
    "geometry": {
       "type": "Point",
       "coordinates":  [ -122.4767303,37.7630653 ]
    },
    "properties": {
    "school_name":"Jefferson Elementary School",
    "date":"2017-09-28",
    "ppb":2.79
    }
  },
  {
    "type": "Feature",
    "geometry": {
       "type": "Point",
       "coordinates":  [ -122.4032211,37.7986107 ]
    },
    "properties": {
    "school_name":"John Yehall Chin Elementary School",
    "date":"2017-04-21",
    "ppb":3.42
    }
  },
  {
    "type": "Feature",
    "geometry": {
       "type": "Point",
       "coordinates":  [ -122.425148,37.7195358 ]
    },
    "properties": {
    "school_name":"Jordan (June) School for Equity",
    "date":"2018-03-08",
    "ppb":2.2
    }
  },
  {
    "type": "Feature",
    "geometry": {
       "type": "Point",
       "coordinates":  [ -122.4666748,37.7167816 ]
    },
    "properties": {
    "school_name":"Jose Ortega Elementary School",
    "date":"2017-09-27",
    "ppb":1.66
    }
  },
  {
    "type": "Feature",
    "geometry": {
       "type": "Point",
       "coordinates":  [ -122.4058075,37.7277412 ]
    },
    "properties": {
    "school_name":"King Jr. (Martin Luther) Academic Middle School",
    "date":"2018-01-30",
    "ppb":1.3
    }
  },
  {
    "type": "Feature",
    "geometry": {
       "type": "Point",
       "coordinates":  [ -122.3965607,37.719532 ]
    },
    "properties": {
    "school_name":"KIPP Bayview Academy",
    "date":"2018-03-20",
    "ppb":1.6
    }
  },
  {
    "type": "Feature",
    "geometry": {
       "type": "Point",
       "coordinates":  [ -122.382256,37.732386 ]
    },
    "properties": {
    "school_name":"KIPP San Francisco College Prep",
    "date":"2018-03-20",
    "ppb":1.3
    }
  },
  {
    "type": "Feature",
    "geometry": {
       "type": "Point",
       "coordinates":  [ -122.4968872,37.7770691 ]
    },
    "properties": {
    "school_name":"Lafayette Elementary School",
    "date":"2017-12-15",
    "ppb":4.4
    }
  },
  {
    "type": "Feature",
    "geometry": {
       "type": "Point",
       "coordinates":  [ -122.4854202,37.7303238 ]
    },
    "properties": {
    "school_name":"Lakeshore Elementary School",
    "date":"2017-04-21",
    "ppb":1.03
    }
  },
  {
    "type": "Feature",
    "geometry": {
       "type": "Point",
       "coordinates":  [ -122.4890976,37.758049 ]
    },
    "properties": {
    "school_name":"Lawton Alternative Elementary School",
    "date":"2017-12-14",
    "ppb":3
    }
  },
  {
    "type": "Feature",
    "geometry": {
       "type": "Point",
       "coordinates":  [ -122.3679962,37.8255119 ]
    },
    "properties": {
    "school_name":"Life Learning Academic Charter School",
    "date":"2018-04-13",
    "ppb":45
    }
  },
  {
    "type": "Feature",
    "geometry": {
       "type": "Point",
       "coordinates":  [ -122.4467392,37.7104225 ]
    },
    "properties": {
    "school_name":"Longfellow Elementary School",
    "date":"2017-12-14",
    "ppb":5.9
    }
  },
  {
    "type": "Feature",
    "geometry": {
       "type": "Point",
       "coordinates":  [ -122.4830551,37.729435 ]
    },
    "properties": {
    "school_name":"Lowell High School",
    "date":"2018-03-07",
    "ppb":4.3
    }
  },
  {
    "type": "Feature",
    "geometry": {
       "type": "Point",
       "coordinates":  [ -122.3809662,37.7342377 ]
    },
    "properties": {
    "school_name":"Malcolm X Elementary School",
    "date":"2017-11-01",
    "ppb":538
    }
  },
  {
    "type": "Feature",
    "geometry": {
       "type": "Point",
       "coordinates":  [ -122.4354782,37.8018265 ]
    },
    "properties": {
    "school_name":"Marina Middle School",
    "date":"2018-01-25",
    "ppb":1.3
    }
  },
  {
    "type": "Feature",
    "geometry": {
       "type": "Point",
       "coordinates":  [ -122.4190216,37.7662888 ]
    },
    "properties": {
    "school_name":"Marshall Elementary School",
    "date":"2017-10-13",
    "ppb":3.94
    }
  },
  {
    "type": "Feature",
    "geometry": {
       "type": "Point",
       "coordinates":  [ -122.4016495,37.7363091 ]
    },
    "properties": {
    "school_name":"Marshall (Thurgood) High School",
    "date":"2017-12-13",
    "ppb":7.7
    }
  },
  {
    "type": "Feature",
    "geometry": {
       "type": "Point",
       "coordinates":  [ -122.4362793,37.7668839 ]
    },
    "properties": {
    "school_name":"McKinley Elementary School",
    "date":"2017-04-20",
    "ppb":1.27
    }
  },
  {
    "type": "Feature",
    "geometry": {
       "type": "Point",
       "coordinates":  [ -122.4501877,37.738636 ]
    },
    "properties": {
    "school_name":"Miraloma Elementary School",
    "date":"2017-10-13",
    "ppb":2
    }
  },
  {
    "type": "Feature",
    "geometry": {
       "type": "Point",
       "coordinates":  [ -122.4273071,37.7620201 ]
    },
    "properties": {
    "school_name":"Mission High School",
    "date":"2018-03-01",
    "ppb":1.2
    }
  },
  {
    "type": "Feature",
    "geometry": {
       "type": "Point",
       "coordinates":  [ -122.400623,37.76172 ]
    },
    "properties": {
    "school_name":"New School of San Francisco",
    "date":"2017-11-15",
    "ppb":52.6
    }
  },
  {
    "type": "Feature",
    "geometry": {
       "type": "Point",
       "coordinates":  [ -122.5036545,37.7538338 ]
    },
    "properties": {
    "school_name":"Noriega Elementary School",
    "date":"2017-12-01",
    "ppb":4.2
    }
  },
  {
    "type": "Feature",
    "geometry": {
       "type": "Point",
       "coordinates":  [ -122.4192505,37.7895203 ]
    },
    "properties": {
    "school_name":"Redding Elementary School",
    "date":"2017-10-17",
    "ppb":11.9
    }
  },
  {
    "type": "Feature",
    "geometry": {
       "type": "Point",
       "coordinates":  [ -122.443222,37.7548103 ]
    },
    "properties": {
    "school_name":"Rooftop Burnett Campus",
    "date":"2017-10-12",
    "ppb":4.82
    }
  },
  {
    "type": "Feature",
    "geometry": {
       "type": "Point",
       "coordinates":  [ -122.4444962,37.7573967 ]
    },
    "properties": {
    "school_name":"Rooftop Mayeda Campus",
    "date":"2017-10-12",
    "ppb":2.34
    }
  },
  {
    "type": "Feature",
    "geometry": {
       "type": "Point",
       "coordinates":  [ -122.4583511,37.78228 ]
    },
    "properties": {
    "school_name":"Roosevelt Middle School",
    "date":"2017-10-03",
    "ppb":1.93
    }
  },
  {
    "type": "Feature",
    "geometry": {
       "type": "Point",
       "coordinates":  [ -122.4303589,37.7634544 ]
    },
    "properties": {
    "school_name":"Sanchez Elementary School",
    "date":"2017-04-19",
    "ppb":1.8
    }
  },
  {
    "type": "Feature",
    "geometry": {
       "type": "Point",
       "coordinates":  [ -122.4214859,37.7369118 ]
    },
    "properties": {
    "school_name":"Serra (Junipero) Elementary School",
    "date":"2017-12-15",
    "ppb":1.6
    }
  },
  {
    "type": "Feature",
    "geometry": {
       "type": "Point",
       "coordinates":  [ -122.4321365,37.7261047 ]
    },
    "properties": {
    "school_name":"SF Community Alt",
    "date":"2017-09-27",
    "ppb":1.73
    }
  },
  {
    "type": "Feature",
    "geometry": {
       "type": "Point",
       "coordinates":  [ -122.452907,37.745931 ]
    },
    "properties": {
    "school_name":"SF County Court Woodside Learning Center",
    "date":"2018-01-30",
    "ppb":4.9
    }
  },
  {
    "type": "Feature",
    "geometry": {
       "type": "Point",
       "coordinates":  [ -122.4596329,37.7144775 ]
    },
    "properties": {
    "school_name":"Sheridan Elementary School",
    "date":"2017-10-11",
    "ppb":1.9
    }
  },
  {
    "type": "Feature",
    "geometry": {
       "type": "Point",
       "coordinates":  [ -122.4261169,37.797802 ]
    },
    "properties": {
    "school_name":"Sherman Elementary School",
    "date":"2017-10-20",
    "ppb":2.72
    }
  },
  {
    "type": "Feature",
    "geometry": {
       "type": "Point",
       "coordinates":  [ -122.4188156,37.7940063 ]
    },
    "properties": {
    "school_name":"Spring Valley Elementary School",
    "date":"2017-10-11",
    "ppb":7.28
    }
  },
  {
    "type": "Feature",
    "geometry": {
       "type": "Point",
       "coordinates":  [ -122.4120789,37.715744 ]
    },
    "properties": {
    "school_name":"Visitacion Valley Middle School",
    "date":"2017-10-20",
    "ppb":2.6
    }
  },
  {
    "type": "Feature",
    "geometry": {
       "type": "Point",
       "coordinates":  [ -122.4459534,37.7806473 ]
    },
    "properties": {
    "school_name":"Wallenberg (Raoul) Traditional High School",
    "date":"2018-02-27",
    "ppb":4.2
    }
  },
  {
    "type": "Feature",
    "geometry": {
       "type": "Point",
       "coordinates":  [ -122.4643478,37.7428741 ]
    },
    "properties": {
    "school_name":"West Portal Elementary School",
    "date":"2017-11-02",
    "ppb":403
    }
  },
  {
    "type": "Feature",
    "geometry": {
       "type": "Point",
       "coordinates":  [ -122.448565,37.745314 ]
    },
    "properties": {
    "school_name":"Academy (The) - SF @ McAteer",
    "date":"NA",
    "ppb":0
    }
  },
  {
    "type": "Feature",
    "geometry": {
       "type": "Point",
       "coordinates":  [ -122.4696808,37.7589645 ]
    },
    "properties": {
    "school_name":"Alice Fong Yu Elementary School",
    "date":"NA",
    "ppb":0
    }
  },
  {
    "type": "Feature",
    "geometry": {
       "type": "Point",
       "coordinates":  [ -122.4657822,37.7296715 ]
    },
    "properties": {
    "school_name":"Aptos Middle School",
    "date":"NA",
    "ppb":0
    }
  },
  {
    "type": "Feature",
    "geometry": {
       "type": "Point",
       "coordinates":  [ -122.4763107,37.7753067 ]
    },
    "properties": {
    "school_name":"Argonne Elementary School",
    "date":"NA",
    "ppb":0
    }
  },
  {
    "type": "Feature",
    "geometry": {
       "type": "Point",
       "coordinates":  [ -122.406456,37.7763824 ]
    },
    "properties": {
    "school_name":"Bessie Carmichael Elementary School",
    "date":"NA",
    "ppb":0
    }
  },
  {
    "type": "Feature",
    "geometry": {
       "type": "Point",
       "coordinates":  [ -122.3995743,37.7364769 ]
    },
    "properties": {
    "school_name":"Brown Jr. (Willie L) Middle School",
    "date":"NA",
    "ppb":0
    }
  },
  {
    "type": "Feature",
    "geometry": {
       "type": "Point",
       "coordinates":  [ -122.4148788,37.754921 ]
    },
    "properties": {
    "school_name":"Cesar Chavez Elementary School",
    "date":"NA",
    "ppb":0
    }
  },
  {
    "type": "Feature",
    "geometry": {
       "type": "Point",
       "coordinates":  [ -122.4580154,37.7872009 ]
    },
    "properties": {
    "school_name":"Claire B. Lilienthal K-2 Madison Campus",
    "date":"NA",
    "ppb":0
    }
  },
  {
    "type": "Feature",
    "geometry": {
       "type": "Point",
       "coordinates":  [ -122.4562683,37.7537537 ]
    },
    "properties": {
    "school_name":"Clarendon Elementary School",
    "date":"NA",
    "ppb":0
    }
  },
  {
    "type": "Feature",
    "geometry": {
       "type": "Point",
       "coordinates":  [ -122.4291916,37.7203407 ]
    },
    "properties": {
    "school_name":"Cleveland Elementary School",
    "date":"NA",
    "ppb":0
    }
  },
  {
    "type": "Feature",
    "geometry": {
       "type": "Point",
       "coordinates":  [ -122.415092,37.801011 ]
    },
    "properties": {
    "school_name":"Cooper (Sarah B) Children Center",
    "date":"NA",
    "ppb":0
    }
  },
  {
    "type": "Feature",
    "geometry": {
       "type": "Point",
       "coordinates":  [ -122.481369,37.7396851 ]
    },
    "properties": {
    "school_name":"D. Feinstein Elementary School",
    "date":"NA",
    "ppb":0
    }
  },
  {
    "type": "Feature",
    "geometry": {
       "type": "Point",
       "coordinates":  [ -122.4431839,37.7213097 ]
    },
    "properties": {
    "school_name":"Denman (James) Middle School",
    "date":"NA",
    "ppb":0
    }
  },
  {
    "type": "Feature",
    "geometry": {
       "type": "Point",
       "coordinates":  [ -122.4395523,37.7876778 ]
    },
    "properties": {
    "school_name":"Dr. William Cobb Elementary School",
    "date":"NA",
    "ppb":0
    }
  },
  {
    "type": "Feature",
    "geometry": {
       "type": "Point",
       "coordinates":  [ -122.3938904,37.7317963 ]
    },
    "properties": {
    "school_name":"Drew (Charles) College Prep.",
    "date":"NA",
    "ppb":0
    }
  },
  {
    "type": "Feature",
    "geometry": {
       "type": "Point",
       "coordinates":  [ -122.4260406,37.754467 ]
    },
    "properties": {
    "school_name":"Edison Charter School",
    "date":"NA",
    "ppb":0
    }
  },
  {
    "type": "Feature",
    "geometry": {
       "type": "Point",
       "coordinates":  [ -122.4073105,37.7273293 ]
    },
    "properties": {
    "school_name":"Edward R. Taylor Elementary School",
    "date":"NA",
    "ppb":0
    }
  },
  {
    "type": "Feature",
    "geometry": {
       "type": "Point",
       "coordinates":  [ -122.4293671,37.7635765 ]
    },
    "properties": {
    "school_name":"Everett Middle School",
    "date":"NA",
    "ppb":0
    }
  },
  {
    "type": "Feature",
    "geometry": {
       "type": "Point",
       "coordinates":  [ -122.4304886,37.725399 ]
    },
    "properties": {
    "school_name":"Excelsior Monroe OST",
    "date":"NA",
    "ppb":0
    }
  },
  {
    "type": "Feature",
    "geometry": {
       "type": "Point",
       "coordinates":  [ -122.5019989,37.7580986 ]
    },
    "properties": {
    "school_name":"Francis Scott Key Elementary School",
    "date":"NA",
    "ppb":0
    }
  },
  {
    "type": "Feature",
    "geometry": {
       "type": "Point",
       "coordinates":  [ -122.410965,37.8045692 ]
    },
    "properties": {
    "school_name":"Francisco Middle School",
    "date":"NA",
    "ppb":0
    }
  },
  {
    "type": "Feature",
    "geometry": {
       "type": "Point",
       "coordinates":  [ -122.4644775,37.77631 ]
    },
    "properties": {
    "school_name":"Frank McCoppin Elementary School",
    "date":"NA",
    "ppb":0
    }
  },
  {
    "type": "Feature",
    "geometry": {
       "type": "Point",
       "coordinates":  [ -122.4359207,37.7794189 ]
    },
    "properties": {
    "school_name":"Gateway Middle School",
    "date":"NA",
    "ppb":0
    }
  },
  {
    "type": "Feature",
    "geometry": {
       "type": "Point",
       "coordinates":  [ -122.4126205,37.7567406 ]
    },
    "properties": {
    "school_name":"George Moscone Elementary School",
    "date":"NA",
    "ppb":0
    }
  },
  {
    "type": "Feature",
    "geometry": {
       "type": "Point",
       "coordinates":  [ -122.496666,37.7503014 ]
    },
    "properties": {
    "school_name":"Giannini (A.P.) Middle School",
    "date":"NA",
    "ppb":0
    }
  },
  {
    "type": "Feature",
    "geometry": {
       "type": "Point",
       "coordinates":  [ -122.4340286,37.7101822 ]
    },
    "properties": {
    "school_name":"Guadalupe Elementary School",
    "date":"NA",
    "ppb":0
    }
  },
  {
    "type": "Feature",
    "geometry": {
       "type": "Point",
       "coordinates":  [ -122.4364471,37.7589264 ]
    },
    "properties": {
    "school_name":"Harvey Milk Elementary School",
    "date":"NA",
    "ppb":0
    }
  },
  {
    "type": "Feature",
    "geometry": {
       "type": "Point",
       "coordinates":  [ -122.388588,37.7340851 ]
    },
    "properties": {
    "school_name":"Havard (Leona M) Early Education",
    "date":"NA",
    "ppb":0
    }
  },
  {
    "type": "Feature",
    "geometry": {
       "type": "Point",
       "coordinates":  [ -122.4635849,37.7632256 ]
    },
    "properties": {
    "school_name":"Independence High School",
    "date":"NA",
    "ppb":0
    }
  },
  {
    "type": "Feature",
    "geometry": {
       "type": "Point",
       "coordinates":  [ -122.483319,37.762367 ]
    },
    "properties": {
    "school_name":"Jefferson Early Education",
    "date":"NA",
    "ppb":0
    }
  },
  {
    "type": "Feature",
    "geometry": {
       "type": "Point",
       "coordinates":  [ -122.4286804,37.7737579 ]
    },
    "properties": {
    "school_name":"John Muir Elementary School",
    "date":"NA",
    "ppb":0
    }
  },
  {
    "type": "Feature",
    "geometry": {
       "type": "Point",
       "coordinates":  [ -122.413559,37.7595139 ]
    },
    "properties": {
    "school_name":"John O'Connell High School",
    "date":"NA",
    "ppb":0
    }
  },
  {
    "type": "Feature",
    "geometry": {
       "type": "Point",
       "coordinates":  [ -122.436904,37.783472 ]
    },
    "properties": {
    "school_name":"KIPP San Francisco Bay Academy",
    "date":"NA",
    "ppb":0
    }
  },
  {
    "type": "Feature",
    "geometry": {
       "type": "Point",
       "coordinates":  [ -122.4088058,37.7943993 ]
    },
    "properties": {
    "school_name":"Lau (Gordon J.) Elementary School",
    "date":"NA",
    "ppb":0
    }
  },
  {
    "type": "Feature",
    "geometry": {
       "type": "Point",
       "coordinates":  [ -122.444888,37.721492 ]
    },
    "properties": {
    "school_name":"Leadership High School",
    "date":"NA",
    "ppb":0
    }
  },
  {
    "type": "Feature",
    "geometry": {
       "type": "Point",
       "coordinates":  [ -122.4119644,37.7477455 ]
    },
    "properties": {
    "school_name":"Leonard R. Flynn Elementary School",
    "date":"NA",
    "ppb":0
    }
  },
  {
    "type": "Feature",
    "geometry": {
       "type": "Point",
       "coordinates":  [ -122.432785,37.7493629 ]
    },
    "properties": {
    "school_name":"Lick (James) Middle School",
    "date":"NA",
    "ppb":0
    }
  },
  {
    "type": "Feature",
    "geometry": {
       "type": "Point",
       "coordinates":  [ -122.4802399,37.7465935 ]
    },
    "properties": {
    "school_name":"Lincoln (Abraham) High School",
    "date":"NA",
    "ppb":0
    }
  },
  {
    "type": "Feature",
    "geometry": {
       "type": "Point",
       "coordinates":  [ -122.428012,37.755274 ]
    },
    "properties": {
    "school_name":"Mahler (Theresa S) Children Center",
    "date":"NA",
    "ppb":0
    }
  },
  {
    "type": "Feature",
    "geometry": {
       "type": "Point",
       "coordinates":  [ -122.4231873,37.713131 ]
    },
    "properties": {
    "school_name":"McClaren (John) Children Center",
    "date":"NA",
    "ppb":0
    }
  },
  {
    "type": "Feature",
    "geometry": {
       "type": "Point",
       "coordinates":  [ -122.4314346,37.7422028 ]
    },
    "properties": {
    "school_name":"Mission Ed Center",
    "date":"NA",
    "ppb":0
    }
  },
  {
    "type": "Feature",
    "geometry": {
       "type": "Point",
       "coordinates":  [ -122.408721,37.755173 ]
    },
    "properties": {
    "school_name":"Mission Preparatory Charter School",
    "date":"NA",
    "ppb":0
    }
  },
  {
    "type": "Feature",
    "geometry": {
       "type": "Point",
       "coordinates":  [ -122.450264,37.7738838 ]
    },
    "properties": {
    "school_name":"New Tradition Elementary School",
    "date":"NA",
    "ppb":0
    }
  },
  {
    "type": "Feature",
    "geometry": {
       "type": "Point",
       "coordinates":  [ -122.4131165,37.7376137 ]
    },
    "properties": {
    "school_name":"Paul Revere Middle School",
    "date":"NA",
    "ppb":0
    }
  },
  {
    "type": "Feature",
    "geometry": {
       "type": "Point",
       "coordinates":  [ -122.4611053,37.7975197 ]
    },
    "properties": {
    "school_name":"Presidio Early Education",
    "date":"NA",
    "ppb":0
    }
  },
  {
    "type": "Feature",
    "geometry": {
       "type": "Point",
       "coordinates":  [ -122.489624,37.7808647 ]
    },
    "properties": {
    "school_name":"Presidio Middle School",
    "date":"NA",
    "ppb":0
    }
  },
  {
    "type": "Feature",
    "geometry": {
       "type": "Point",
       "coordinates":  [ -122.4927597,37.7488441 ]
    },
    "properties": {
    "school_name":"Robert L Stevenson Elementary School",
    "date":"NA",
    "ppb":0
    }
  },
  {
    "type": "Feature",
    "geometry": {
       "type": "Point",
       "coordinates":  [ -122.4185562,37.7498207 ]
    },
    "properties": {
    "school_name":"Zaida T. Rodriguez Early Education",
    "date":"NA",
    "ppb":0
    }
  },
  {
    "type": "Feature",
    "geometry": {
       "type": "Point",
       "coordinates":  [ -122.4295044,37.7830086 ]
    },
    "properties": {
    "school_name":"Rosa Parks Elementary School",
    "date":"NA",
    "ppb":0
    }
  },
  {
    "type": "Feature",
    "geometry": {
       "type": "Point",
       "coordinates":  [ -122.4447098,37.7216454 ]
    },
    "properties": {
    "school_name":"San Miguel Children Center",
    "date":"NA",
    "ppb":0
    }
  },
  {
    "type": "Feature",
    "geometry": {
       "type": "Point",
       "coordinates":  [ -122.424871,37.740029 ]
    },
    "properties": {
    "school_name":"Serra, Junipero (Annex) Early Education School",
    "date":"NA",
    "ppb":0
    }
  },
  {
    "type": "Feature",
    "geometry": {
       "type": "Point",
       "coordinates":  [ -122.433586,37.79294 ]
    },
    "properties": {
    "school_name":"SF Public Montessori Elementary School",
    "date":"NA",
    "ppb":0
    }
  },
  {
    "type": "Feature",
    "geometry": {
       "type": "Point",
       "coordinates":  [ -122.3991928,37.7532883 ]
    },
    "properties": {
    "school_name":"Starr King Elementary School",
    "date":"NA",
    "ppb":0
    }
  },
  {
    "type": "Feature",
    "geometry": {
       "type": "Point",
       "coordinates":  [ -122.4090805,37.7950821 ]
    },
    "properties": {
    "school_name":"Stockton (Commodore) Children Center",
    "date":"NA",
    "ppb":0
    }
  },
  {
    "type": "Feature",
    "geometry": {
       "type": "Point",
       "coordinates":  [ -122.4482574,37.7302933 ]
    },
    "properties": {
    "school_name":"Sunnyside Elementary School",
    "date":"NA",
    "ppb":0
    }
  },
  {
    "type": "Feature",
    "geometry": {
       "type": "Point",
       "coordinates":  [ -122.4991531,37.7505226 ]
    },
    "properties": {
    "school_name":"Sunset Elementary School",
    "date":"NA",
    "ppb":0
    }
  },
  {
    "type": "Feature",
    "geometry": {
       "type": "Point",
       "coordinates":  [ -122.4714508,37.7836037 ]
    },
    "properties": {
    "school_name":"Sutro Elementary School",
    "date":"NA",
    "ppb":0
    }
  },
  {
    "type": "Feature",
    "geometry": {
       "type": "Point",
       "coordinates":  [ -122.4197769,37.7817955 ]
    },
    "properties": {
    "school_name":"Tenderloin Elementary School",
    "date":"NA",
    "ppb":0
    }
  },
  {
    "type": "Feature",
    "geometry": {
       "type": "Point",
       "coordinates":  [ -122.4345627,37.7994194 ]
    },
    "properties": {
    "school_name":"Tule Elk Park",
    "date":"NA",
    "ppb":0
    }
  },
  {
    "type": "Feature",
    "geometry": {
       "type": "Point",
       "coordinates":  [ -122.4993973,37.7373161 ]
    },
    "properties": {
    "school_name":"Ulloa Elementary School",
    "date":"NA",
    "ppb":0
    }
  },
  {
    "type": "Feature",
    "geometry": {
       "type": "Point",
       "coordinates":  [ -122.4098969,37.7125244 ]
    },
    "properties": {
    "school_name":"Visitacion Valley Elementary School",
    "date":"NA",
    "ppb":0
    }
  },
  {
    "type": "Feature",
    "geometry": {
       "type": "Point",
       "coordinates":  [ -122.4910126,37.7779045 ]
    },
    "properties": {
    "school_name":"Washington (George) High School",
    "date":"NA",
    "ppb":0
    }
  },
  {
    "type": "Feature",
    "geometry": {
       "type": "Point",
       "coordinates":  [ -122.42987,37.783291 ]
    },
    "properties": {
    "school_name":"Weill (Raphael) Children Center",
    "date":"NA",
    "ppb":0
    }
  },
  {
    "type": "Feature",
    "geometry": {
       "type": "Point",
       "coordinates":  [ -122.4338989,37.775013 ]
    },
    "properties": {
    "school_name":"Ida B Wells High School",
    "date":"NA",
    "ppb":0
    }
  },
  {
    "type": "Feature",
    "geometry": {
       "type": "Point",
       "coordinates":  [ -122.4166107,37.80196 ]
    },
    "properties": {
    "school_name":"Yick Wo Elementary School",
    "date":"NA",
    "ppb":0
    }
  }
]
}